[
  { "name": "三峽-國立台北大學", "latitude": 24.9421, "longitude": 121.3664, "time": "平日上班尖峰 (07:00 - 10:00)" },
  { "name": "三峽-國立台北大學", "latitude": 24.9421, "longitude": 121.3664, "time": "平日下班尖峰 (17:00 - 20:00)" },
  { "name": "三重-三和夜市", "latitude": 25.0664, "longitude": 121.5008, "time": "平日深夜時段 (20:00 - 07:00)" },
  { "name": "三重-全聯三重仁愛門市", "latitude": 25.0747, "longitude": 121.4947, "time": "平日下班尖峰 (17:00 - 20:00)" },
  { "name": "三重-捷運三重國小站", "latitude": 25.0706, "longitude": 121.4965, "time": "平日上班尖峰 (07:00 - 10:00)" },
  { "name": "三重-捷運三和國中站", "latitude": 25.0768, "longitude": 121.4862, "time": "假日/週末時段" },
  { "name": "三重-新北市立聯合醫院三重院區", "latitude": 25.0609, "longitude": 121.4883, "time": "平日白天時段 (10:00 - 17:00)" },
  { "name": "大同-台北市大龍峒", "latitude": 25.0734, "longitude": 121.5160, "time": "平日白天時段 (10:00 - 17:00)" },
  { "name": "大同-大龍峒保安宮", "latitude": 25.0730, "longitude": 121.5154, "time": "假日/週末時段" },
  { "name": "大同-捷運北門站", "latitude": 25.0487, "longitude": 121.5095, "time": "平日下班尖峰 (17:00 - 20:00)" },
  { "name": "大安-六張犁站", "latitude": 25.0241, "longitude": 121.5529, "time": "假日/週末時段" },
  { "name": "大安-大安森林公園", "latitude": 25.0321, "longitude": 121.5342, "time": "平日白天時段 (10:00 - 17:00)" },
  { "name": "大安-忠孝復興站", "latitude": 25.0412, "longitude": 121.5433, "time": "平日下班尖峰 (17:00 - 20:00)" },
  { "name": "大安-忠孝復興站", "latitude": 25.0412, "longitude": 121.5433, "time": "平日深夜時段 (20:00 - 07:00)" },
  { "name": "大安-忠孝復興站", "latitude": 25.0412, "longitude": 121.5433, "time": "假日/週末時段" },
  { "name": "大安-捷運台電大樓站", "latitude": 25.0206, "longitude": 121.5283, "time": "平日白天時段 (10:00 - 17:00)" },
  { "name": "大安-捷運台電大樓站", "latitude": 25.0206, "longitude": 121.5283, "time": "假日/週末時段" },
  { "name": "大安-捷運科技大樓站", "latitude": 25.0261, "longitude": 121.5435, "time": "假日/週末時段" },
  { "name": "大安-國立台北教育大學", "latitude": 25.0245, "longitude": 121.5436, "time": "平日白天時段 (10:00 - 17:00)" },
  { "name": "大安-誠品書店台大店", "latitude": 25.0189, "longitude": 121.5335, "time": "平日下班尖峰 (17:00 - 20:00)" },
  { "name": "大安-臨江觀光夜市", "latitude": 25.0310, "longitude": 121.5540, "time": "平日深夜時段 (20:00 - 07:00)" },
  { "name": "大安-臨江觀光夜市", "latitude": 25.0310, "longitude": 121.5540, "time": "平日下班尖峰 (17:00 - 20:00)" },
  { "name": "士林-士林夜市", "latitude": 25.0881, "longitude": 121.5245, "time": "平日白天時段 (10:00 - 17:00)" },
  { "name": "士林-士林夜市", "latitude": 25.0881, "longitude": 121.5245, "time": "平日下班尖峰 (17:00 - 20:00)" },
  { "name": "士林-士林夜市", "latitude": 25.0869, "longitude": 121.5254, "time": "平日深夜時段 (20:00 - 07:00)" },
  { "name": "士林-士林夜市商圈", "latitude": 25.0881, "longitude": 121.5245, "time": "假日/週末時段" },
  { "name": "士林-捷運士林站", "latitude": 25.0931, "longitude": 121.5264, "time": "平日上班尖峰 (07:00 - 10:00)" },
  { "name": "士林-捷運明德站", "latitude": 25.1096, "longitude": 121.5191, "time": "平日下班尖峰 (17:00 - 20:00)" },
  { "name": "士林-故宮博物院", "latitude": 25.1022, "longitude": 121.5485, "time": "假日/週末時段" },
  { "name": "士林-聯合醫院陽明院區", "latitude": 25.1048, "longitude": 121.5321, "time": "平日深夜時段 (20:00 - 07:00)" },
  { "name": "士林-遠東SOGO天母店", "latitude": 25.1051, "longitude": 121.5235, "time": "假日/週末時段" },
  { "name": "中山-台北國賓飯店", "latitude": 25.0583, "longitude": 121.5228, "time": "平日深夜時段 (20:00 - 07:00)" },
  { "name": "中山-松江南京站", "latitude": 25.0514, "longitude": 121.5332, "time": "平日白天時段 (10:00 - 17:00)" },
  { "name": "中山-美麗華百樂園", "latitude": 25.0835, "longitude": 121.5583, "time": "平日白天時段 (10:00 - 17:00)" },
  { "name": "中山-美麗華百樂園", "latitude": 25.0834, "longitude": 121.5575, "time": "平日深夜時段 (20:00 - 07:00)" },
  { "name": "中山-美麗華百樂園", "latitude": 25.0834, "longitude": 121.5575, "time": "假日/週末時段" },
  { "name": "中山-捷運中山站", "latitude": 25.0521, "longitude": 121.5207, "time": "假日/週末時段" },
  { "name": "中山-捷運中山國中站", "latitude": 25.0608, "longitude": 121.5441, "time": "平日深夜時段 (20:00 - 07:00)" },
  { "name": "中山-捷運中山國小站", "latitude": 25.0628, "longitude": 121.5262, "time": "平日下班尖峰 (17:00 - 20:00)" },
  { "name": "中山-晴光市場", "latitude": 25.0628, "longitude": 121.5246, "time": "假日/週末時段" },
  { "name": "中山-榮星花園", "latitude": 25.0641, "longitude": 121.5393, "time": "平日白天時段 (10:00 - 17:00)" },
  { "name": "中正-古亭站", "latitude": 25.0271, "longitude": 121.5222, "time": "平日下班尖峰 (17:00 - 20:00)" },
  { "name": "中正-華山創意文化園區", "latitude": 25.0443, "longitude": 121.5298, "time": "平日白天時段 (10:00 - 17:00)" },
  { "name": "中正-華山創意文化園區", "latitude": 25.0443, "longitude": 121.5298, "time": "假日/週末時段" },
  { "name": "中正-捷運中正紀念堂站", "latitude": 25.0354, "longitude": 121.5186, "time": "平日白天時段 (10:00 - 17:00)" },
  { "name": "中正-捷運東門站", "latitude": 25.0338, "longitude": 121.5283, "time": "平日深夜時段 (20:00 - 07:00)" },
  { "name": "中正-聯合醫院婦幼院區", "latitude": 25.0308, "longitude": 121.5165, "time": "假日/週末時段" },
  { "name": "中和-中和和平街黃昏市場", "latitude": 24.9911, "longitude": 121.5065, "time": "平日上班尖峰時段 (07:00 - 10:00)" },
  { "name": "中和-中和環球購物中心", "latitude": 25.0064, "longitude": 121.4744, "time": "假日/週末時段" },
  { "name": "中和-好市多中和店", "latitude": 25.0003, "longitude": 121.4912, "time": "平日上班尖峰時段 (07:00 - 10:00)" },
  { "name": "中和-好市多中和店", "latitude": 25.0003, "longitude": 121.4912, "time": "平日白天時段 (10:00 - 17:00)" },
  { "name": "中和-好市多中和店", "latitude": 25.0003, "longitude": 121.4912, "time": "平日下班尖峰時段 (17:00 - 20:00)" },
  { "name": "中和-好市多中和店", "latitude": 25.0003, "longitude": 121.4912, "time": "假日/週末時段" },
  { "name": "中和-捷運秀朗橋站", "latitude": 24.9930, "longitude": 121.5269, "time": "平日深夜時段 (20:00 - 07:00)" },
  { "name": "中和-捷運景安站", "latitude": 24.9917, "longitude": 121.5050, "time": "假日/週末時段" },
  { "name": "中和-雙和醫院", "latitude": 24.9926, "longitude": 121.4925, "time": "平日上班尖峰時段 (07:00 - 10:00)" },
  { "name": "中和-雙和醫院", "latitude": 24.9926, "longitude": 121.4925, "time": "平日下班尖峰時段 (17:00 - 20:00)" },
  { "name": "內湖-IKEA內湖店", "latitude": 25.0617, "longitude": 121.5768, "time": "平日白天時段 (10:00 - 17:00)" },
  { "name": "內湖-內湖CityLink", "latitude": 25.0838, "longitude": 121.5947, "time": "平日深夜時段 (20:00 - 07:00)" },
  { "name": "內湖-內湖好市多", "latitude": 25.0634, "longitude": 121.5772, "time": "平日上班尖峰 (07:00 - 10:00)" },
  { "name": "內湖-內湖好市多", "latitude": 25.0634, "longitude": 121.5772, "time": "平日下班尖峰 (17:00 - 20:00)" },
  { "name": "內湖-內湖好市多", "latitude": 25.0634, "longitude": 121.5772, "time": "假日/週末時段" },
  { "name": "內湖-內湖科學園區", "latitude": 25.0782, "longitude": 121.5732, "time": "平日白天時段 (10:00 - 17:00)" },
  { "name": "內湖-內湖科學園區", "latitude": 25.0782, "longitude": 121.5732, "time": "平日下班尖峰 (17:00 - 20:00)" },
  { "name": "內湖-內湖科技園區", "latitude": 25.0782, "longitude": 121.5732, "time": "假日/週末時段" },
  { "name": "內湖-南湖高中", "latitude": 25.0682, "longitude": 121.6111, "time": "平日上班尖峰 (07:00 - 10:00)" },
  { "name": "內湖-捷運西湖站", "latitude": 25.0821, "longitude": 121.5671, "time": "平日上班尖峰 (07:00 - 10:00)" },
  { "name": "內湖-捷運葫洲站", "latitude": 25.0725, "longitude": 121.6080, "time": "平日白天時段 (10:00 - 17:00)" },
  { "name": "內湖-國防醫學院", "latitude": 25.0682, "longitude": 121.5925, "time": "假日/週末時段" },
  { "name": "內湖-湖興公園", "latitude": 25.0688, "longitude": 121.5898, "time": "平日白天時段 (10:00 - 17:00)" },
  { "name": "台中-日日新影城", "latitude": 24.1442, "longitude": 120.6754, "time": "平日上/下班尖峰時段 (07:00-10:00/17:00-20:00)" },
  { "name": "台中-台中歌劇院", "latitude": 24.1627, "longitude": 120.6412, "time": "平日上/下班尖峰時段 (07:00-10:00/17:00-20:00)" },
  { "name": "台中-台中高鐵站", "latitude": 24.1121, "longitude": 120.6152, "time": "平日白天時段 (10:00 - 17:00)" },
  { "name": "台中-台中高鐵站", "latitude": 24.1121, "longitude": 120.6152, "time": "平日上/下班尖峰時段 (07:00-10:00/17:00-20:00)" },
  { "name": "台中-台中轉運站", "latitude": 24.1373, "longitude": 120.6865, "time": "平日白天時段 (10:00 - 17:00)" },
  { "name": "台中-台中轉運站", "latitude": 24.1373, "longitude": 120.6865, "time": "平日上/下班尖峰時段 (07:00-10:00/17:00-20:00)" },
  { "name": "台中-台中榮民總醫院", "latitude": 24.1821, "longitude": 120.6035, "time": "平日上/下班尖峰時段 (07:00-10:00/17:00-20:00)" },
  { "name": "台中-好市多台中店", "latitude": 24.1292, "longitude": 120.6454, "time": "平日白天時段 (10:00 - 17:00)" },
  { "name": "台中-好市多台中店", "latitude": 24.1292, "longitude": 120.6454, "time": "平日上/下班尖峰時段 (07:00-10:00/17:00-20:00)" },
  { "name": "台中-秋紅谷景觀生態公園", "latitude": 24.1673, "longitude": 120.6398, "time": "平日白天時段 (10:00 - 17:00)" },
  { "name": "台中-秋紅谷景觀生態公園", "latitude": 24.1673, "longitude": 120.6398, "time": "平日上/下班尖峰時段 (07:00-10:00/17:00-20:00)" },
  { "name": "台中-茶六燒肉堂公益店", "latitude": 24.1511, "longitude": 120.6504, "time": "平日上/下班尖峰時段 (07:00-10:00/17:00-20:00)" },
  { "name": "台中-草悟道台中市", "latitude": 24.1492, "longitude": 120.6621, "time": "平日白天時段 (10:00 - 17:00)" },
  { "name": "台中-國立自然科學博物館", "latitude": 24.1554, "longitude": 120.6601, "time": "平日上/下班尖峰時段 (07:00-10:00/17:00-20:00)" },
  { "name": "台中-國立台灣美術館", "latitude": 24.1412, "longitude": 120.6631, "time": "平日白天時段 (10:00 - 17:00)" },
  { "name": "台中-逢甲夜市", "latitude": 24.1758, "longitude": 120.6456, "time": "平日上/下班尖峰時段 (07:00-10:00/17:00-20:00)" },
  { "name": "台中-捷運文心崇德站", "latitude": 24.1722, "longitude": 120.6853, "time": "假日/週末時段" },
  { "name": "台中-精武車站", "latitude": 24.1507, "longitude": 120.6976, "time": "假日/週末時段" },
  { "name": "台中-南屯國民運動中心", "latitude": 24.1432, "longitude": 120.6409, "time": "平日上/下班尖峰時段 (07:00-10:00/17:00-20:00)" },
  { "name": "台中-南和路郵局", "latitude": 24.1154, "longitude": 120.6702, "time": "平日白天時段 (10:00 - 17:00)" },
  { "name": "台中-南和路郵局", "latitude": 24.1154, "longitude": 120.6702, "time": "平日上/下班尖峰時段 (07:00-10:00/17:00-20:00)" },
  { "name": "台中-社團法人林新醫院", "latitude": 24.1452, "longitude": 120.6384, "time": "平日白天時段 (10:00 - 17:00)" },
  { "name": "台中-長榮桂冠酒店", "latitude": 24.1594, "longitude": 120.6552, "time": "平日白天時段 (10:00 - 17:00)" },
  { "name": "台中-秋紅谷景觀生態公園", "latitude": 24.1673, "longitude": 120.6398, "time": "平日白天時段 (10:00 - 17:00)" },
  { "name": "台中-太原車站", "latitude": 24.1639, "longitude": 120.7011, "time": "平日上/下班尖峰時段 (07:00-10:00/17:00-20:00)" },
  { "name": "台中-北屯公園", "latitude": 24.1717, "longitude": 120.6874, "time": "平日深夜時段 (20:00 - 07:00)" },
  { "name": "台中-大潤發忠明店", "latitude": 24.1612, "longitude": 120.6691, "time": "平日白天時段 (10:00 - 17:00)" },
  { "name": "台中-曉明女中", "latitude": 24.1679, "longitude": 120.6723, "time": "平日上/下班尖峰時段 (07:00-10:00/17:00-20:00)" },
  { "name": "台北-台北市立聯合醫院陽明院區", "latitude": 25.1048, "longitude": 121.5321, "time": "平日深夜時段 (20:00 - 07:00)" },
  { "name": "台南-台南火車站", "latitude": 22.9972, "longitude": 120.2119, "time": "全時段 (平日與假日)" },
  { "name": "台南-市立台南文化中心", "latitude": 22.9752, "longitude": 120.2215, "time": "全時段 (平日與假日)" },
  { "name": "台南-花園夜市", "latitude": 23.0104, "longitude": 120.1998, "time": "全時段 (平日與假日)" },
  { "name": "台南-南紡購物中心", "latitude": 22.9912, "longitude": 120.2335, "time": "全時段 (平日與假日)" },
  { "name": "台南-安平古堡", "latitude": 22.9998, "longitude": 120.1616, "time": "全時段 (平日與假日)" },
  { "name": "台南-崑山科技大學", "latitude": 22.9972, "longitude": 120.2522, "time": "全時段 (平日與假日)" },
  { "name": "台南-大橋火車站", "latitude": 23.0189, "longitude": 120.2241, "time": "全時段 (平日與假日)" },
  { "name": "永和-永和國民運動中心", "latitude": 25.0041, "longitude": 121.5244, "time": "平日下班尖峰時段 (17:00 - 20:00)" },
  { "name": "永和-天主教永和耕莘醫院", "latitude": 25.0097, "longitude": 121.5169, "time": "平日白天時段 (10:00 - 17:00)" },
  { "name": "永和-捷運頂溪站", "latitude": 25.0125, "longitude": 121.5154, "time": "平日下班尖峰時段 (17:00 - 20:00)" },
  { "name": "永和-捷運頂溪站", "latitude": 25.0125, "longitude": 121.5154, "time": "假日/週末時段" },
  { "name": "西門-西門紅樓", "latitude": 25.0418, "longitude": 121.5074, "time": "平日深夜時段 (20:00 - 07:00)" },
  { "name": "西門-西門紅樓", "latitude": 25.0418, "longitude": 121.5074, "time": "假日/週末時段" },
  { "name": "西門-西門町商圈", "latitude": 25.0441, "longitude": 121.5085, "time": "平日白天時段 (10:00 - 17:00)" },
  { "name": "利澤-龍德工業區", "latitude": 24.6468, "longitude": 121.8211, "time": "平日上班尖峰 (07:00 - 10:00)" },
  { "name": "沙鹿-靜宜大學", "latitude": 24.2274, "longitude": 120.5828, "time": "平日下班尖峰 (17:00 - 20:00)" },
  { "name": "南港-南港火車站", "latitude": 25.0528, "longitude": 121.6067, "time": "平日上班尖峰 (07:00 - 10:00)" },
  { "name": "南港-南港火車站", "latitude": 25.0528, "longitude": 121.6067, "time": "平日白天時段 (10:00 - 17:00)" },
  { "name": "南港-南港火車站", "latitude": 25.0528, "longitude": 121.6067, "time": "假日/週末時段" },
  { "name": "信義-台北國際會議中心", "latitude": 25.0336, "longitude": 121.5606, "time": "平日白天時段 (10:00 - 17:00)" },
  { "name": "信義-台北國際會議中心", "latitude": 25.0336, "longitude": 121.5606, "time": "假日/週末時段" },
  { "name": "信義-捷運市政府站", "latitude": 25.0411, "longitude": 121.5653, "time": "平日下班尖峰 (17:00 - 20:00)" },
  { "name": "信義-永春國小", "latitude": 25.0414, "longitude": 121.5755, "time": "假日/週末時段" },
  { "name": "屏東-屏東火車站", "latitude": 22.6694, "longitude": 120.4862, "time": "平日白天時段 (10:00 - 17:00)" },
  { "name": "屏東-屏東火車站", "latitude": 22.6694, "longitude": 120.4862, "time": "假日/週末時段" },
  { "name": "桃園-中原大學", "latitude": 24.9579, "longitude": 121.2405, "time": "全時段 (平日與假日)" },
  { "name": "桃園-中壢車站", "latitude": 24.9538, "longitude": 121.2254, "time": "全時段 (平日與假日)" },
  { "name": "桃園-中壢藝術園區", "latitude": 24.9621, "longitude": 121.2258, "time": "全時段 (平日與假日)" },
  { "name": "桃園-中壢區林森國民小學", "latitude": 24.9511, "longitude": 121.2332, "time": "全時段 (平日與假日)" },
  { "name": "桃園-元智大學", "latitude": 24.9698, "longitude": 121.2662, "time": "全時段 (平日與假日)" },
  { "name": "桃園-內壢火車站", "latitude": 24.9729, "longitude": 121.2584, "time": "全時段 (平日與假日)" },
  { "name": "桃園-中華郵政龜山郵局", "latitude": 25.0012, "longitude": 121.3408, "time": "全時段 (平日與假日)" },
  { "name": "桃園-家樂福八德店", "latitude": 24.9452, "longitude": 121.2839, "time": "全時段 (平日與假日)" },
  { "name": "桃園-國立中央大學", "latitude": 24.9681, "longitude": 121.1921, "time": "全時段 (平日與假日)" },
  { "name": "桃園-桃園火車站", "latitude": 24.9892, "longitude": 121.3135, "time": "全時段 (平日與假日)" },
  { "name": "桃園-桃園高鐵站站前廣場", "latitude": 25.0134, "longitude": 121.2152, "time": "全時段 (平日與假日)" },
  { "name": "桃園-桃園福容大飯店", "latitude": 25.0068, "longitude": 121.2995, "time": "全時段 (平日與假日)" },
  { "name": "桃園-青塘園遊客中心", "latitude": 25.0031, "longitude": 121.2054, "time": "全時段 (平日與假日)" },
  { "name": "桃園-愛買桃園店", "latitude": 24.9918, "longitude": 121.2821, "time": "全時段 (平日與假日)" },
  { "name": "桃園-衛生署桃園醫院", "latitude": 24.9784, "longitude": 121.2675, "time": "全時段 (平日與假日)" },
  { "name": "高雄-85大樓", "latitude": 22.6116, "longitude": 120.3004, "time": "平日深夜時段 (20:00 - 07:00)" },
  { "name": "高雄-新光三越高雄左營店", "latitude": 22.6874, "longitude": 120.3072, "time": "平日上/下班尖峰時段 (07:00-10:00 / 17:00-20:00)" },
  { "name": "高雄-瑞豐夜市", "latitude": 22.6659, "longitude": 120.3005, "time": "平日上/下班尖峰時段 (07:00-10:00 / 17:00-20:00)" },
  { "name": "高雄-凹子底森林公園", "latitude": 22.6584, "longitude": 120.3015, "time": "平日上/下班尖峰時段 (07:00-10:00 / 17:00-20:00)" },
  { "name": "高雄-高雄巨蛋", "latitude": 22.6696, "longitude": 120.3022, "time": "假日/週末時段" },
  { "name": "高雄-高雄車站", "latitude": 22.6394, "longitude": 120.3021, "time": "平日上/下班尖峰時段 (07:00-10:00 / 17:00-20:00)" },
  { "name": "淡水-捷運淡水站", "latitude": 25.1678, "longitude": 121.4455, "time": "假日/週末時段" },
  { "name": "新竹-工研院", "latitude": 24.7742, "longitude": 121.0448, "time": "平日上/下班尖峰時段 (07:00-10:00/17:00-20:00)" },
  { "name": "新竹-中國醫藥大學新竹附設醫院", "latitude": 24.8234, "longitude": 121.0112, "time": "平日上/下班尖峰時段 (07:00-10:00/17:00-20:00)" },
  { "name": "新竹-中國醫藥大學新竹附設醫院", "latitude": 24.8234, "longitude": 121.0112, "time": "平日白天時段 (10:00 - 17:00)" },
  { "name": "新竹-北區西門國小", "latitude": 24.8032, "longitude": 120.9612, "time": "平日上/下班尖峰時段 (07:00-10:00/17:00-20:00)" },
  { "name": "新竹-北區西門國小", "latitude": 24.8032, "longitude": 120.9612, "time": "平日深夜時段 (20:00 - 07:00)" },
  { "name": "新竹-全家新竹寶山店", "latitude": 24.7851, "longitude": 120.9902, "time": "平日白天時段 (10:00 - 17:00)" },
  { "name": "新竹-好市多新竹店", "latitude": 24.7928, "longitude": 121.0049, "time": "平日上/下班尖峰時段 (07:00-10:00/17:00-20:00)" },
  { "name": "新竹-好市多新竹店", "latitude": 24.7928, "longitude": 121.0049, "time": "平日白天時段 (10:00 - 17:00)" },
  { "name": "新竹-好市多新竹店", "latitude": 24.7928, "longitude": 121.0049, "time": "平日深夜時段 (20:00 - 07:00)" },
  { "name": "新竹-好市多新竹店", "latitude": 24.7928, "longitude": 121.0049, "time": "假日/週末時段" },
  { "name": "新竹-竹中車站", "latitude": 24.7812, "longitude": 121.0251, "time": "平日上/下班尖峰時段 (07:00-10:00/17:00-20:00)" },
  { "name": "新竹-竹中車站", "latitude": 24.7812, "longitude": 121.0251, "time": "平日白天時段 (10:00 - 17:00)" },
  { "name": "新竹-竹北車站", "latitude": 24.8390, "longitude": 121.0090, "time": "平日白天時段 (10:00 - 17:00)" },
  { "name": "新竹-竹北國民運動中心", "latitude": 24.8228, "longitude": 121.0201, "time": "假日/週末時段" },
  { "name": "新竹-竹北市安興國小", "latitude": 24.8264, "longitude": 121.0375, "time": "平日深夜時段 (20:00 - 07:00)" },
  { "name": "新竹-家樂福竹北店", "latitude": 24.8278, "longitude": 121.0112, "time": "平日白天時段 (10:00 - 17:00)" },
  { "name": "新竹-馬偕紀念醫院新竹院區", "latitude": 24.8015, "longitude": 120.9948, "time": "平日上/下班尖峰時段 (07:00-10:00/17:00-20:00)" },
  { "name": "新竹-國立新竹高中", "latitude": 24.7941, "longitude": 120.9852, "time": "平日上/下班尖峰時段 (07:00-10:00/17:00-20:00)" },
  { "name": "新竹-國立清華大學", "latitude": 24.7954, "longitude": 120.9932, "time": "假日/週末時段" },
  { "name": "新竹-清華大學南大校區", "latitude": 24.7932, "longitude": 120.9664, "time": "平日上/下班尖峰時段 (07:00-10:00/17:00-20:00)" },
  { "name": "新竹-清華大學南大校區", "latitude": 24.7932, "longitude": 120.9664, "time": "平日白天時段 (10:00 - 17:00)" },
  { "name": "新竹-麥當勞竹北中華店", "latitude": 24.8452, "longitude": 121.0041, "time": "平日上/下班尖峰時段 (07:00-10:00/17:00-20:00)" },
  { "name": "新竹-麥當勞新竹光復店", "latitude": 24.7852, "longitude": 121.0184, "time": "假日/週末時段" },
  { "name": "新竹-愛買新竹店", "latitude": 24.7992, "longitude": 120.9998, "time": "平日白天時段 (10:00 - 17:00)" },
  { "name": "新竹-愛買新竹店", "latitude": 24.7992, "longitude": 120.9998, "time": "假日/週末時段" },
  { "name": "新竹-新竹老爺酒店", "latitude": 24.7778, "longitude": 121.0182, "time": "平日白天時段 (10:00 - 17:00)" },
  { "name": "新竹-新竹科學工業園區", "latitude": 24.7778, "longitude": 121.0041, "time": "平日上/下班尖峰時段 (07:00-10:00/17:00-20:00)" },
  { "name": "新竹-新竹車站", "latitude": 24.8018, "longitude": 120.9715, "time": "平日上/下班尖峰時段 (07:00-10:00/17:00-20:00)" },
  { "name": "新竹-新竹車站", "latitude": 24.8018, "longitude": 120.9715, "time": "平日白天時段 (10:00 - 17:00)" },
  { "name": "新竹-新竹車站", "latitude": 24.8018, "longitude": 120.9715, "time": "平日深夜時段 (20:00 - 07:00)" },
  { "name": "新竹-新竹車站", "latitude": 24.8018, "longitude": 120.9715, "time": "假日/週末時段" },
  { "name": "新竹-新竹高鐵站", "latitude": 24.8082, "longitude": 121.0401, "time": "平日上/下班尖峰時段 (07:00-10:00/17:00-20:00)" },
  { "name": "新竹-新竹高鐵站", "latitude": 24.8082, "longitude": 121.0401, "time": "平日白天時段 (10:00 - 17:00)" },
  { "name": "新竹-新竹高鐵站", "latitude": 24.8082, "longitude": 121.0401, "time": "平日深夜時段 (20:00 - 07:00)" },
  { "name": "新竹-新竹高鐵站", "latitude": 24.8082, "longitude": 121.0401, "time": "假日/週末時段" },
  { "name": "新竹-新竹臺大分院", "latitude": 24.8153, "longitude": 120.9765, "time": "平日上/下班尖峰時段 (07:00-10:00/17:00-20:00)" },
  { "name": "新竹-新竹臺大分院", "latitude": 24.8153, "longitude": 120.9765, "time": "平日白天時段 (10:00 - 17:00)" },
  { "name": "新竹-新竹豐邑喜來登大飯店", "latitude": 24.8228, "longitude": 121.0302, "time": "平日上/下班尖峰時段 (07:00-10:00/17:00-20:00)" },
  { "name": "新竹-新竹豐邑喜來登大飯店", "latitude": 24.8228, "longitude": 121.0302, "time": "平日白天時段 (10:00 - 17:00)" },
  { "name": "新竹-新竹豐邑喜來登大飯店", "latitude": 24.8228, "longitude": 121.0302, "time": "平日深夜時段 (20:00 - 07:00)" },
  { "name": "新竹-新竹縣政府", "latitude": 24.8271, "longitude": 121.0142, "time": "平日深夜時段 (20:00 - 07:00)" },
  { "name": "新竹-遠東巨城購物中心", "latitude": 24.8094, "longitude": 120.9751, "time": "假日/週末時段" },
  { "name": "新竹-廟口鴨香飯", "latitude": 24.8042, "longitude": 120.9672, "time": "假日/週末時段" },
  { "name": "新竹-大潤發新竹忠孝店", "latitude": 24.8062, "longitude": 120.9881, "time": "平日深夜時段 (20:00 - 07:00)" },
  { "name": "新竹-IKEA 新竹訂購取貨中心", "latitude": 24.8142, "longitude": 121.0308, "time": "平日上/下班尖峰時段 (07:00-10:00/17:00-20:00)" },
  { "name": "新莊-新北產業園區捷運站", "latitude": 25.0613, "longitude": 121.4597, "time": "假日/週末時段" },
  { "name": "新莊-新莊國民運動中心", "latitude": 25.0396, "longitude": 121.4478, "time": "假日/週末時段" },
  { "name": "新店-捷運大坪林站", "latitude": 24.9829, "longitude": 121.5414, "time": "平日上班尖峰時段 (07:00 - 10:00)" },
  { "name": "新店-捷運大坪林站", "latitude": 24.9829, "longitude": 121.5414, "time": "平日白天時段 (10:00 - 17:00)" },
  { "name": "新店-捷運大坪林站", "latitude": 24.9829, "longitude": 121.5414, "time": "平日下班尖峰時段 (17:00 - 20:00)" },
  { "name": "新店-捷運大坪林站", "latitude": 24.9829, "longitude": 121.5414, "time": "假日/週末時段" },
  { "name": "萬華-台大醫院北護分院", "latitude": 25.0445, "longitude": 121.5036, "time": "平日白天時段 (10:00 - 17:00)" },
  { "name": "萬華-西門紅樓", "latitude": 25.0418, "longitude": 121.5074, "time": "平日下班尖峰 (17:00 - 20:00)" },
  { "name": "萬華-西門紅樓", "latitude": 25.0418, "longitude": 121.5074, "time": "平日深夜時段 (20:00 - 07:00)" },
  { "name": "萬華-西門紅樓", "latitude": 25.0418, "longitude": 121.5074, "time": "假日/週末時段" },
  { "name": "萬華-西門町商圈", "latitude": 25.0441, "longitude": 121.5085, "time": "平日白天時段 (10:00 - 17:00)" },
  { "name": "萬華-萬華火車站", "latitude": 25.0336, "longitude": 121.5008, "time": "平日白天時段 (10:00 - 17:00)" },
  { "name": "萬華-萬華火車站", "latitude": 25.0336, "longitude": 121.5008, "time": "假日/週末時段" },
  { "name": "彰化-彰化火車站", "latitude": 24.0818, "longitude": 120.5385, "time": "假日/週末時段" },
  { "name": "彰化-彰化基督教醫院", "latitude": 24.0664, "longitude": 120.5422, "time": "平日白天時段 (10:00 - 17:00)" },
  { "name": "彰化-彰化基督教醫院", "latitude": 24.0664, "longitude": 120.5422, "time": "假日/週末時段" },
  { "name": "鳳山-鳳山火車站", "latitude": 22.6334, "longitude": 120.3552, "time": "平日下班尖峰 (17:00 - 20:00)" },
  { "name": "鳳山-鳳山火車站", "latitude": 22.6334, "longitude": 120.3552, "time": "假日/週末時段" },
  { "name": "基隆-基隆火車站", "latitude": 25.1321, "longitude": 121.7401, "time": "平日上班尖峰 (07:00 - 10:00)" },
  { "name": "基隆-基隆火車站", "latitude": 25.1321, "longitude": 121.7401, "time": "假日/週末時段" },
  { "name": "基隆-長庚紀念醫院基隆院區", "latitude": 25.1166, "longitude": 121.7244, "time": "平日白天時段 (10:00 - 17:00)" },
  { "name": "基隆-長庚紀念醫院基隆院區", "latitude": 25.1166, "longitude": 121.7244, "time": "假日/週末時段" },
  { "name": "松山-中崙市場", "latitude": 25.0494, "longitude": 121.5522, "time": "假日/週末時段" },
  { "name": "松山-民生社區中心", "latitude": 25.0594, "longitude": 121.5614, "time": "平日白天時段 (10:00 - 17:00)" },
  { "name": "松山-民生社區中心", "latitude": 25.0594, "longitude": 121.5614, "time": "平日下班尖峰 (17:00 - 20:00)" },
  { "name": "松山-民生社區中心", "latitude": 25.0594, "longitude": 121.5614, "time": "平日深夜時段 (20:00 - 07:00)" },
  { "name": "松山-民生社區中心", "latitude": 25.0594, "longitude": 121.5614, "time": "假日/週末時段" },
  { "name": "松山-南京復興站", "latitude": 25.0517, "longitude": 121.5435, "time": "平日白天時段 (10:00 - 17:00)" },
  { "name": "松山-松山火車站", "latitude": 25.0494, "longitude": 121.5778, "time": "平日白天時段 (10:00 - 17:00)" },
  { "name": "松山-松山火車站", "latitude": 25.0494, "longitude": 121.5778, "time": "平日下班尖峰 (17:00 - 20:00)" },
  { "name": "松山-台北西華飯店", "latitude": 25.0588, "longitude": 121.5445, "time": "平日下班尖峰 (17:00 - 20:00)" },
  { "name": "板橋-World Gym 板橋中山店", "latitude": 25.0186, "longitude": 121.4741, "time": "假日/週末時段" },
  { "name": "板橋-板橋中興醫院", "latitude": 25.0046, "longitude": 121.4621, "time": "平日下班尖峰時段 (17:00 - 20:00)" },
  { "name": "板橋-板橋大遠百", "latitude": 25.0126, "longitude": 121.4650, "time": "平日上班尖峰時段 (07:00 - 10:00)" },
  { "name": "板橋-板橋大遠百", "latitude": 25.0126, "longitude": 121.4650, "time": "平日白天時段 (10:00 - 17:00)" },
  { "name": "板橋-板橋火車站", "latitude": 25.0145, "longitude": 121.4621, "time": "假日/週末時段" },
  { "name": "板橋-板橋區信義國小", "latitude": 24.9965, "longitude": 121.4661, "time": "平日上班尖峰時段 (07:00 - 10:00)" },
  { "name": "板橋-板橋區信義國小", "latitude": 24.9965, "longitude": 121.4661, "time": "平日下班尖峰時段 (17:00 - 20:00)" },
  { "name": "板橋-家樂福板橋店", "latitude": 25.0279, "longitude": 121.4759, "time": "平日上班尖峰時段 (07:00 - 10:00)" },
  { "name": "板橋-慈濟板橋園區", "latitude": 24.9961, "longitude": 121.4516, "time": "平日白天時段 (10:00 - 17:00)" },
  { "name": "板橋-慈濟板橋園區", "latitude": 24.9961, "longitude": 121.4516, "time": "假日/週末時段" },
  { "name": "板橋-捷運江子翠站", "latitude": 25.0302, "longitude": 121.4719, "time": "平日上班尖峰時段 (07:00 - 10:00)" },
  { "name": "板橋-捷運板新站", "latitude": 25.0142, "longitude": 121.4721, "time": "平日下班尖峰時段 (17:00 - 20:00)" },
  { "name": "板橋-捷運新埔站", "latitude": 25.0232, "longitude": 121.4682, "time": "平日深夜時段 (20:00 - 07:00)" },
  { "name": "板橋-新北萬坪都會公園", "latitude": 25.0152, "longitude": 121.4651, "time": "平日白天時段 (10:00 - 17:00)" },
  { "name": "板橋-愛買南雅店", "latitude": 25.0021, "longitude": 121.4526, "time": "平日深夜時段 (20:00 - 07:00)" },
  { "name": "北投-台北市北投運動中心", "latitude": 25.1166, "longitude": 121.5097, "time": "平日白天時段 (10:00 - 17:00)" },
  { "name": "北投-台北榮民總醫院", "latitude": 25.1205, "longitude": 121.5199, "time": "平日上班尖峰 (07:00 - 10:00)" },
  { "name": "北投-台北榮民總醫院", "latitude": 25.1205, "longitude": 121.5199, "time": "平日白天時段 (10:00 - 17:00)" },
  { "name": "北投-台北榮民總醫院", "latitude": 25.1205, "longitude": 121.5199, "time": "假日/週末時段" },
  { "name": "北投-捷運唭哩岸站", "latitude": 25.1204, "longitude": 121.5065, "time": "平日下班尖峰 (17:00 - 20:00)" },
  { "name": "屏東-屏東火車站", "latitude": 22.6694, "longitude": 120.4862, "time": "平日白天時段 (10:00 - 17:00)" },
  { "name": "屏東-屏東火車站", "latitude": 22.6694, "longitude": 120.4862, "time": "假日/週末時段" },
  { "name": "員林-員林火車站", "latitude": 23.9592, "longitude": 120.5694, "time": "假日/週末時段" },
  { "name": "員林-員林基督教醫院", "latitude": 23.9554, "longitude": 120.5612, "time": "平日白天時段 (10:00 - 17:00)" },
  { "name": "員林-員林基督教醫院", "latitude": 23.9554, "longitude": 120.5612, "time": "假日/週末時段" },
  { "name": "梧棲-三井Outlet 台中港", "latitude": 24.2721, "longitude": 120.5212, "time": "假日/週末時段" },
  { "name": "鹿港-鹿港天后宮", "latitude": 24.0583, "longitude": 120.4312, "time": "假日/週末時段" },
  { "name": "雲林-斗六火車站", "latitude": 23.7118, "longitude": 120.5415, "time": "假日/週末時段" },
  { "name": "雲林-國立成功大學附設醫院雲林分院", "latitude": 23.7042, "longitude": 120.5352, "time": "平日白天時段 (10:00 - 17:00)" },
  { "name": "雲林-國立成功大學附設醫院雲林分院", "latitude": 23.7042, "longitude": 120.5352, "time": "假日/週末時段" },
  { "name": "新莊-新北產業園區捷運站", "latitude": 25.0613, "longitude": 121.4597, "time": "假日/週末時段" },
  { "name": "新莊-新莊國民運動中心", "latitude": 25.0396, "longitude": 121.4478, "time": "假日/週末時段" },
  { "name": "新店-捷運大坪林站", "latitude": 24.9829, "longitude": 121.5414, "time": "平日上班尖峰時段 (07:00 - 10:00)" },
  { "name": "新店-捷運大坪林站", "latitude": 24.9829, "longitude": 121.5414, "time": "平日白天時段 (10:00 - 17:00)" },
  { "name": "新店-捷運大坪林站", "latitude": 24.9829, "longitude": 121.5414, "time": "平日下班尖峰時段 (17:00 - 20:00)" },
  { "name": "新店-捷運大坪林站", "latitude": 24.9829, "longitude": 121.5414, "time": "假日/週末時段" },
  { "name": "萬華-台大醫院北護分院", "latitude": 25.0445, "longitude": 121.5036, "time": "平日白天時段 (10:00 - 17:00)" },
  { "name": "萬華-西門紅樓", "latitude": 25.0418, "longitude": 121.5074, "time": "平日下班尖峰 (17:00 - 20:00)" },
  { "name": "萬華-西門紅樓", "latitude": 25.0418, "longitude": 121.5074, "time": "平日深夜時段 (20:00 - 07:00)" },
  { "name": "萬華-西門紅樓", "latitude": 25.0418, "longitude": 121.5074, "time": "假日/週末時段" },
  { "name": "萬華-西門町商圈", "latitude": 25.0441, "longitude": 121.5085, "time": "平日白天時段 (10:00 - 17:00)" },
  { "name": "萬華-萬華火車站", "latitude": 25.0336, "longitude": 121.5008, "time": "平日白天時段 (10:00 - 17:00)" },
  { "name": "萬華-萬華火車站", "latitude": 25.0336, "longitude": 121.5008, "time": "假日/週末時段" },
  { "name": "嘉義-嘉義火車站", "latitude": 23.4792, "longitude": 120.4414, "time": "平日白天時段 (10:00 - 17:00)" },
  { "name": "嘉義-嘉義火車站", "latitude": 23.4792, "longitude": 120.4414, "time": "假日/週末時段" },
  { "name": "嘉義-嘉義長庚紀念醫院", "latitude": 23.4552, "longitude": 120.2921, "time": "平日白天時段 (10:00 - 17:00)" },
  { "name": "嘉義-嘉義長庚紀念醫院", "latitude": 23.4552, "longitude": 120.2921, "time": "假日/週末時段" },
  { "name": "彰化-彰化火車站", "latitude": 24.0818, "longitude": 120.5385, "time": "假日/週末時段" },
  { "name": "彰化-彰化基督教醫院", "latitude": 24.0664, "longitude": 120.5422, "time": "平日白天時段 (10:00 - 17:00)" },
  { "name": "彰化-彰化基督教醫院", "latitude": 24.0664, "longitude": 120.5422, "time": "假日/週末時段" },
  { "name": "鳳山-鳳山火車站", "latitude": 22.6334, "longitude": 120.3552, "time": "平日下班尖峰 (17:00 - 20:00)" },
  { "name": "鳳山-鳳山火車站", "latitude": 22.6334, "longitude": 120.3552, "time": "假日/週末時段" },
  { "name": "基隆-基隆火車站", "latitude": 25.1321, "longitude": 121.7401, "time": "平日上班尖峰 (07:00 - 10:00)" },
  { "name": "基隆-基隆火車站", "latitude": 25.1321, "longitude": 121.7401, "time": "假日/週末時段" },
  { "name": "基隆-長庚紀念醫院基隆院區", "latitude": 25.1166, "longitude": 121.7244, "time": "平日白天時段 (10:00 - 17:00)" },
  { "name": "基隆-長庚紀念醫院基隆院區", "latitude": 25.1166, "longitude": 121.7244, "time": "假日/週末時段" },
  { "name": "文山-台北市立萬芳醫院", "latitude": 24.9996, "longitude": 121.5572, "time": "假日/週末時段" },
  { "name": "文山-文山景美運動公園", "latitude": 24.9984, "longitude": 121.5422, "time": "平日白天時段 (10:00 - 17:00)" },
  { "name": "文山-文山景美運動公園", "latitude": 24.9984, "longitude": 121.5422, "time": "平日下班尖峰時段 (17:00 - 20:00)" },
  { "name": "文山-木柵市場", "latitude": 24.9877, "longitude": 121.5668, "time": "平日上班尖峰時段 (07:00 - 10:00)" },
  { "name": "文山-木柵市場", "latitude": 24.9877, "longitude": 121.5668, "time": "平日白天時段 (10:00 - 17:00)" },
  { "name": "文山-捷運萬隆站", "latitude": 25.0017, "longitude": 121.5401, "time": "平日上班尖峰時段 (07:00 - 10:00)" },
  { "name": "文山-萬芳高中", "latitude": 24.9997, "longitude": 121.5529, "time": "平日深夜時段 (20:00 - 07:00)" },
  { "name": "蘆洲-家樂福蘆洲店", "latitude": 25.0879, "longitude": 121.4865, "time": "假日/週末時段" }
]